{
"type": "FeatureCollection",
"name": "madrid_metro_stops",
"crs": { "type": "name", "properties": { "name": "urn:ogc:def:crs:OGC:1.3:CRS84" } },
"features": [
{ "type": "Feature", "properties": { "the_geom": "0101000020E6100000FB21365838690DC07FC00303083D4440", "cartodb_id": 2, "name": "Bambú", "line": "L1" }, "geometry": { "type": "Point", "coordinates": [ -3.676377, 40.476807 ] } },
{ "type": "Feature", "properties": { "the_geom": "0101000020E610000073F38DE89E550DC07D5D86FF743D4440", "cartodb_id": 1, "name": "Pinar de Chamartín", "line": "L1" }, "geometry": { "type": "Point", "coordinates": [ -3.666807, 40.480133 ] } },
{ "type": "Feature", "properties": { "the_geom": "0101000020E610000005D49B51F3750DC0DBFAE93F6B3C4440", "cartodb_id": 3, "name": "Chamartín", "line": "L1" }, "geometry": { "type": "Point", "coordinates": [ -3.682593, 40.472023 ] } },
{ "type": "Feature", "properties": { "the_geom": "0101000020E61000005BEF37DA71830DC06D59BE2EC33B4440", "cartodb_id": 4, "name": "Plaza de Castilla", "line": "L1" }, "geometry": { "type": "Point", "coordinates": [ -3.689182, 40.466894 ] } },
{ "type": "Feature", "properties": { "the_geom": "0101000020E6100000077E54C37E8F0DC06C5A2904723B4440", "cartodb_id": 5, "name": "Valdeacederas", "line": "L1" }, "geometry": { "type": "Point", "coordinates": [ -3.695066, 40.464417 ] } },
{ "type": "Feature", "properties": { "the_geom": "0101000020E6100000EA5C514A08960DC0EF91CD55F33A4440", "cartodb_id": 6, "name": "Tetuán", "line": "L1" }, "geometry": { "type": "Point", "coordinates": [ -3.698258, 40.460551 ] } },
{ "type": "Feature", "properties": { "the_geom": "0101000020E6100000DE1D19ABCD9F0DC03A2174D0253A4440", "cartodb_id": 7, "name": "Estrecho", "line": "L1" }, "geometry": { "type": "Point", "coordinates": [ -3.703029, 40.454279 ] } },
{ "type": "Feature", "properties": { "the_geom": "0101000020E61000004981053065A00DC0FFAF3A72A4394440", "cartodb_id": 8, "name": "Alvarado", "line": "L1" }, "geometry": { "type": "Point", "coordinates": [ -3.703318, 40.450331 ] } },
{ "type": "Feature", "properties": { "the_geom": "0101000020E6100000F1D3B837BFA10DC014B2F33636394440", "cartodb_id": 9, "name": "Cuatro Caminos", "line": "L1" }, "geometry": { "type": "Point", "coordinates": [ -3.703978, 40.446967 ] } },
{ "type": "Feature", "properties": { "the_geom": "0101000020E61000002E1B9DF3539C0DC056D7A19A92384440", "cartodb_id": 10, "name": "Ríos Rosas", "line": "L1" }, "geometry": { "type": "Point", "coordinates": [ -3.701332, 40.441974 ] } },
{ "type": "Feature", "properties": { "the_geom": "0101000020E610000004AE2B6684970DC0EA40D653AB374440", "cartodb_id": 11, "name": "Iglesia", "line": "L1" }, "geometry": { "type": "Point", "coordinates": [ -3.698983, 40.434916 ] } },
{ "type": "Feature", "properties": { "the_geom": "0101000020E61000003026FDBD149E0DC0A52C431CEB364440", "cartodb_id": 12, "name": "Bilbao", "line": "L1" }, "geometry": { "type": "Point", "coordinates": [ -3.702188, 40.42905 ] } },
{ "type": "Feature", "properties": { "the_geom": "0101000020E61000003B730F09DF9B0DC06A12BC218D364440", "cartodb_id": 13, "name": "Tribunal", "line": "L1" }, "geometry": { "type": "Point", "coordinates": [ -3.701109, 40.426182 ] } },
{ "type": "Feature", "properties": { "the_geom": "0101000020E6100000D2C8E7154F9D0DC0A88B14CAC2354440", "cartodb_id": 14, "name": "Gran Vía", "line": "L1" }, "geometry": { "type": "Point", "coordinates": [ -3.701811, 40.420007 ] } },
{ "type": "Feature", "properties": { "the_geom": "0101000020E610000015A243E048A00DC01E4FCB0F5C354440", "cartodb_id": 15, "name": "Sol", "line": "L1" }, "geometry": { "type": "Point", "coordinates": [ -3.703264, 40.416872 ] } },
{ "type": "Feature", "properties": { "the_geom": "0101000020E610000039D384ED27A30DC064E60297C7344440", "cartodb_id": 16, "name": "Tirso de Molina", "line": "L1" }, "geometry": { "type": "Point", "coordinates": [ -3.704666, 40.412341 ] } },
{ "type": "Feature", "properties": { "the_geom": "0101000020E6100000BDDBBC7152980DC0B0E76B96CB344440", "cartodb_id": 17, "name": "Antón Martín", "line": "L1" }, "geometry": { "type": "Point", "coordinates": [ -3.699376, 40.412463 ] } },
{ "type": "Feature", "properties": { "the_geom": "0101000020E6100000D731AEB8388A0DC0AA08371955344440", "cartodb_id": 18, "name": "Atocha", "line": "L1" }, "geometry": { "type": "Point", "coordinates": [ -3.692491, 40.408847 ] } },
{ "type": "Feature", "properties": { "the_geom": "0101000020E6100000C02154A9D9830DC0778192020B344440", "cartodb_id": 19, "name": "Atocha Renfe", "line": "L1" }, "geometry": { "type": "Point", "coordinates": [ -3.68938, 40.406586 ] } },
{ "type": "Feature", "properties": { "the_geom": "0101000020E610000073F6CE68AB720DC08FFB56EBC4334440", "cartodb_id": 20, "name": "Menéndez Pelayo", "line": "L1" }, "geometry": { "type": "Point", "coordinates": [ -3.680991, 40.404447 ] } },
{ "type": "Feature", "properties": { "the_geom": "0101000020E6100000718E3A3AAE660DC071A94A5B5C334440", "cartodb_id": 21, "name": "Pacífico", "line": "L1" }, "geometry": { "type": "Point", "coordinates": [ -3.675137, 40.401256 ] } },
{ "type": "Feature", "properties": { "the_geom": "0101000020E610000086F8872D3D5A0DC0B1C398F4F7324440", "cartodb_id": 22, "name": "Puente de Vallecas", "line": "L1" }, "geometry": { "type": "Point", "coordinates": [ -3.669062, 40.398192 ] } },
{ "type": "Feature", "properties": { "the_geom": "0101000020E6100000546AF6402B500DC0013274ECA0324440", "cartodb_id": 23, "name": "Nueva Numancia", "line": "L1" }, "geometry": { "type": "Point", "coordinates": [ -3.664145, 40.395536 ] } },
{ "type": "Feature", "properties": { "the_geom": "0101000020E610000014ED2AA4FC440DC0D2C5A69542324440", "cartodb_id": 24, "name": "Portazgo", "line": "L1" }, "geometry": { "type": "Point", "coordinates": [ -3.658685, 40.392657 ] } },
{ "type": "Feature", "properties": { "the_geom": "0101000020E61000001E2C6343373B0DC05B3E92921E324440", "cartodb_id": 25, "name": "Buenos Aires", "line": "L1" }, "geometry": { "type": "Point", "coordinates": [ -3.653914, 40.391558 ] } },
{ "type": "Feature", "properties": { "the_geom": "0101000020E6100000277E8CB96B290DC050FF59F3E3314440", "cartodb_id": 26, "name": "Alto del Arenal", "line": "L1" }, "geometry": { "type": "Point", "coordinates": [ -3.645225, 40.389769 ] } },
{ "type": "Feature", "properties": { "the_geom": "0101000020E6100000437573F1B71D0DC037A4518193314440", "cartodb_id": 27, "name": "Miguel Hernández", "line": "L1" }, "geometry": { "type": "Point", "coordinates": [ -3.639511, 40.387314 ] } },
{ "type": "Feature", "properties": { "the_geom": "0101000020E6100000E4F21FD26FFF0CC06FEB6E9EEA304440", "cartodb_id": 28, "name": "Sierra de Guadalupe", "line": "L1" }, "geometry": { "type": "Point", "coordinates": [ -3.624725, 40.38216 ] } },
{ "type": "Feature", "properties": { "the_geom": "0101000020E610000002F2255470F80CC03065E08096304440", "cartodb_id": 29, "name": "Villa de Vallecas", "line": "L1" }, "geometry": { "type": "Point", "coordinates": [ -3.621308, 40.379593 ] } },
{ "type": "Feature", "properties": { "the_geom": "0101000020E610000071C6302768F30CC06D533C2EAA2F4440", "cartodb_id": 30, "name": "Congosto", "line": "L1" }, "geometry": { "type": "Point", "coordinates": [ -3.618851, 40.372381 ] } },
{ "type": "Feature", "properties": { "the_geom": "0101000020E6100000F65AD07B63E80CC0213CDA38622F4440", "cartodb_id": 31, "name": "La Gavia", "line": "L1" }, "geometry": { "type": "Point", "coordinates": [ -3.613471, 40.370185 ] } },
{ "type": "Feature", "properties": { "the_geom": "0101000020E610000073B8567BD8CB0CC0371C96067E2E4440", "cartodb_id": 32, "name": "Las Suertes", "line": "L1" }, "geometry": { "type": "Point", "coordinates": [ -3.599534, 40.363221 ] } },
{ "type": "Feature", "properties": { "the_geom": "0101000020E610000020BFB7E9CFBE0CC094B7239C162E4440", "cartodb_id": 33, "name": "Valdecarros", "line": "L1" }, "geometry": { "type": "Point", "coordinates": [ -3.59317, 40.360065 ] } },
{ "type": "Feature", "properties": { "the_geom": "0101000020E6100000600322C495D30CC05874EB353D364440", "cartodb_id": 34, "name": "Las Rosas", "line": "L2" }, "geometry": { "type": "Point", "coordinates": [ -3.603313, 40.423743 ] } },
{ "type": "Feature", "properties": { "the_geom": "0101000020E6100000DFA3FE7A85E50CC0F78F85E810364440", "cartodb_id": 35, "name": "Avenida de Guadalajara", "line": "L2" }, "geometry": { "type": "Point", "coordinates": [ -3.612071, 40.422391 ] } },
{ "type": "Feature", "properties": { "the_geom": "0101000020E6100000FFC874E8F4FC0CC0543882548A354440", "cartodb_id": 36, "name": "Alsacia", "line": "L2" }, "geometry": { "type": "Point", "coordinates": [ -3.623514, 40.418284 ] } },
{ "type": "Feature", "properties": { "the_geom": "0101000020E6100000346E6AA0F91C0DC05A10CAFB38364440", "cartodb_id": 37, "name": "La Almudena", "line": "L2" }, "geometry": { "type": "Point", "coordinates": [ -3.639148, 40.423614 ] } },
{ "type": "Feature", "properties": { "the_geom": "0101000020E6100000ED0E290648340DC0348639419B364440", "cartodb_id": 38, "name": "La Elipa", "line": "L2" }, "geometry": { "type": "Point", "coordinates": [ -3.650528, 40.426613 ] } },
{ "type": "Feature", "properties": { "the_geom": "0101000020E6100000BC361B2B314F0DC0E0BBCD1B27374440", "cartodb_id": 39, "name": "Ventas", "line": "L2" }, "geometry": { "type": "Point", "coordinates": [ -3.663668, 40.430881 ] } },
{ "type": "Feature", "properties": { "the_geom": "0101000020E6100000F8A41309A65A0DC01E6E8786C5364440", "cartodb_id": 40, "name": "Manuel Becerra", "line": "L2" }, "geometry": { "type": "Point", "coordinates": [ -3.669262, 40.427903 ] } },
{ "type": "Feature", "properties": { "the_geom": "0101000020E6100000A6CAF78C44680DC003ECA35357364440", "cartodb_id": 41, "name": "Goya", "line": "L2" }, "geometry": { "type": "Point", "coordinates": [ -3.675912, 40.42454 ] } },
{ "type": "Feature", "properties": { "the_geom": "0101000020E610000047C0E8F2E6700DC02A1E17D522364440", "cartodb_id": 42, "name": "Príncipe de Vergara", "line": "L2" }, "geometry": { "type": "Point", "coordinates": [ -3.680128, 40.422938 ] } },
{ "type": "Feature", "properties": { "the_geom": "0101000020E61000005ABBED42737D0DC080492A53CC354440", "cartodb_id": 43, "name": "Retiro", "line": "L2" }, "geometry": { "type": "Point", "coordinates": [ -3.686255, 40.420298 ] } },
{ "type": "Feature", "properties": { "the_geom": "0101000020E6100000CEA78E554A8F0DC0506EDBF7A8354440", "cartodb_id": 44, "name": "Banco de España", "line": "L2" }, "geometry": { "type": "Point", "coordinates": [ -3.694966, 40.419219 ] } },
{ "type": "Feature", "properties": { "the_geom": "0101000020E610000019FED30D14980DC011902FA182354440", "cartodb_id": 45, "name": "Sevilla", "line": "L2" }, "geometry": { "type": "Point", "coordinates": [ -3.699257, 40.418049 ] } },
{ "type": "Feature", "properties": { "the_geom": "0101000020E610000015A243E048A00DC01E4FCB0F5C354440", "cartodb_id": 46, "name": "Sol", "line": "L2" }, "geometry": { "type": "Point", "coordinates": [ -3.703264, 40.416872 ] } },
{ "type": "Feature", "properties": { "the_geom": "0101000020E61000000469C6A2E9AC0DC02E7590D783354440", "cartodb_id": 47, "name": "Ópera", "line": "L2" }, "geometry": { "type": "Point", "coordinates": [ -3.70943, 40.418086 ] } },
{ "type": "Feature", "properties": { "the_geom": "0101000020E610000082700514EAA90DC0C8B4368DED354440", "cartodb_id": 48, "name": "Santo Domingo", "line": "L2" }, "geometry": { "type": "Point", "coordinates": [ -3.707966, 40.421312 ] } },
{ "type": "Feature", "properties": { "the_geom": "0101000020E610000084B872F6CEA80DC08D0C721761364440", "cartodb_id": 49, "name": "Noviciado", "line": "L2" }, "geometry": { "type": "Point", "coordinates": [ -3.707426, 40.424838 ] } },
{ "type": "Feature", "properties": { "the_geom": "0101000020E6100000912BF52C08A50DC0CBF5B6990A374440", "cartodb_id": 50, "name": "San Bernardo", "line": "L2" }, "geometry": { "type": "Point", "coordinates": [ -3.705582, 40.430011 ] } },
{ "type": "Feature", "properties": { "the_geom": "0101000020E61000000798F90E7EA20DC01E8997A773374440", "cartodb_id": 51, "name": "Quevedo", "line": "L2" }, "geometry": { "type": "Point", "coordinates": [ -3.704342, 40.433217 ] } },
{ "type": "Feature", "properties": { "the_geom": "0101000020E6100000EBE6E26F7BA20DC0622F14B01D384440", "cartodb_id": 52, "name": "Canal", "line": "L2" }, "geometry": { "type": "Point", "coordinates": [ -3.704337, 40.438406 ] } },
{ "type": "Feature", "properties": { "the_geom": "0101000020E6100000E71F7D93A6A10DC014B2F33636394440", "cartodb_id": 53, "name": "Cuatro Caminos", "line": "L2" }, "geometry": { "type": "Point", "coordinates": [ -3.703931, 40.446967 ] } },
{ "type": "Feature", "properties": { "the_geom": "0101000020E61000009755D80C70C10DC04C9EB29AAE374440", "cartodb_id": 54, "name": "Moncloa", "line": "L3" }, "geometry": { "type": "Point", "coordinates": [ -3.719452, 40.435016 ] } },
{ "type": "Feature", "properties": { "the_geom": "0101000020E61000005F07CE1951BA0DC0315D88D51F374440", "cartodb_id": 55, "name": "Argüelles", "line": "L3" }, "geometry": { "type": "Point", "coordinates": [ -3.715975, 40.430659 ] } },
{ "type": "Feature", "properties": { "the_geom": "0101000020E61000008011346612B50DC04963B48EAA364440", "cartodb_id": 56, "name": "Ventura Rodríguez", "line": "L3" }, "geometry": { "type": "Point", "coordinates": [ -3.713414, 40.42708 ] } },
{ "type": "Feature", "properties": { "the_geom": "0101000020E610000076C075C58CB00DC081EA1F4432364440", "cartodb_id": 57, "name": "Plaza de España", "line": "L3" }, "geometry": { "type": "Point", "coordinates": [ -3.711206, 40.423409 ] } },
{ "type": "Feature", "properties": { "the_geom": "0101000020E610000074EE76BD34A50DC023111AC1C6354440", "cartodb_id": 58, "name": "Callao", "line": "L3" }, "geometry": { "type": "Point", "coordinates": [ -3.705667, 40.420128 ] } },
{ "type": "Feature", "properties": { "the_geom": "0101000020E610000011E50B5A48A00DC0D8D64FFF59354440", "cartodb_id": 59, "name": "Sol", "line": "L3" }, "geometry": { "type": "Point", "coordinates": [ -3.703263, 40.416809 ] } },
{ "type": "Feature", "properties": { "the_geom": "0101000020E6100000E5779ACC789B0DC0C2137AFD49344440", "cartodb_id": 60, "name": "Lavapiés", "line": "L3" }, "geometry": { "type": "Point", "coordinates": [ -3.700914, 40.408508 ] } },
{ "type": "Feature", "properties": { "the_geom": "0101000020E610000028E78BBD179F0DC07DFE7BF0DA334440", "cartodb_id": 61, "name": "Embajadores", "line": "L3" }, "geometry": { "type": "Point", "coordinates": [ -3.702682, 40.405119 ] } },
{ "type": "Feature", "properties": { "the_geom": "0101000020E610000092E86514CB8D0DC0A67B9DD497334440", "cartodb_id": 62, "name": "Palos de la Frontera", "line": "L3" }, "geometry": { "type": "Point", "coordinates": [ -3.694235, 40.403071 ] } },
{ "type": "Feature", "properties": { "the_geom": "0101000020E6100000D88A36C7B98D0DC0D0D556EC2F334440", "cartodb_id": 63, "name": "Delicias", "line": "L3" }, "geometry": { "type": "Point", "coordinates": [ -3.694202, 40.3999 ] } },
{ "type": "Feature", "properties": { "the_geom": "0101000020E61000005CCB64389E8F0DC009FB761211324440", "cartodb_id": 64, "name": "Legazpi", "line": "L3" }, "geometry": { "type": "Point", "coordinates": [ -3.695126, 40.391146 ] } },
{ "type": "Feature", "properties": { "the_geom": "0101000020E6100000C91EA16648950DC0AFCF9CF529314440", "cartodb_id": 65, "name": "Almendrales", "line": "L3" }, "geometry": { "type": "Point", "coordinates": [ -3.697892, 40.384093 ] } },
{ "type": "Feature", "properties": { "the_geom": "0101000020E61000008B101E6D1C910DC05917B7D100304440", "cartodb_id": 66, "name": "Hospital 12 de Octubre", "line": "L3" }, "geometry": { "type": "Point", "coordinates": [ -3.695855, 40.375025 ] } },
{ "type": "Feature", "properties": { "the_geom": "0101000020E61000004ED2FC31AD8D0DC09A70AFCC5B2F4440", "cartodb_id": 67, "name": "San Fermín-Orcasur", "line": "L3" }, "geometry": { "type": "Point", "coordinates": [ -3.694178, 40.369989 ] } },
{ "type": "Feature", "properties": { "the_geom": "0101000020E61000003FE3C281908C0DC0382EE3A6062E4440", "cartodb_id": 68, "name": "Ciudad de los Ángeles", "line": "L3" }, "geometry": { "type": "Point", "coordinates": [ -3.693635, 40.359578 ] } },
{ "type": "Feature", "properties": { "the_geom": "0101000020E61000006455849B8C8A0DC0293FA9F6E92C4440", "cartodb_id": 69, "name": "Villaverde Bajo-Cruce", "line": "L3" }, "geometry": { "type": "Point", "coordinates": [ -3.692651, 40.35089 ] } },
{ "type": "Feature", "properties": { "the_geom": "0101000020E6100000630D17B9A78B0DC00D349F73B72B4440", "cartodb_id": 70, "name": "San Cristóbal", "line": "L3" }, "geometry": { "type": "Point", "coordinates": [ -3.693191, 40.341536 ] } },
{ "type": "Feature", "properties": { "the_geom": "0101000020E6100000E45E605628B20DC04ED2FC31AD2B4440", "cartodb_id": 71, "name": "Villaverde Alto", "line": "L3" }, "geometry": { "type": "Point", "coordinates": [ -3.711991, 40.341223 ] } },
{ "type": "Feature", "properties": { "the_geom": "0101000020E61000001B2B31CF4ABA0DC0EAE40CC51D374440", "cartodb_id": 73, "name": "Argüelles", "line": "L4" }, "geometry": { "type": "Point", "coordinates": [ -3.715963, 40.430596 ] } },
{ "type": "Feature", "properties": { "the_geom": "0101000020E6100000D57B2AA73DA50DC04EB7EC10FF364440", "cartodb_id": 74, "name": "San Bernardo", "line": "L4" }, "geometry": { "type": "Point", "coordinates": [ -3.705684, 40.429659 ] } },
{ "type": "Feature", "properties": { "the_geom": "0101000020E61000001EFCC401F49B0DC00EF62686E4364440", "cartodb_id": 75, "name": "Bilbao", "line": "L4" }, "geometry": { "type": "Point", "coordinates": [ -3.701149, 40.428849 ] } },
{ "type": "Feature", "properties": { "the_geom": "0101000020E6100000A835CD3B4E910DC08CF4A276BF364440", "cartodb_id": 76, "name": "Alonso Martínez", "line": "L4" }, "geometry": { "type": "Point", "coordinates": [ -3.69595, 40.427718 ] } },
{ "type": "Feature", "properties": { "the_geom": "0101000020E6100000F3AB394030870DC05AA148F773364440", "cartodb_id": 77, "name": "Colón", "line": "L4" }, "geometry": { "type": "Point", "coordinates": [ -3.69101, 40.425414 ] } },
{ "type": "Feature", "properties": { "the_geom": "0101000020E6100000D5C9198A3B7E0DC030DAE38574364440", "cartodb_id": 78, "name": "Serrano", "line": "L4" }, "geometry": { "type": "Point", "coordinates": [ -3.686637, 40.425431 ] } },
{ "type": "Feature", "properties": { "the_geom": "0101000020E61000004A46CEC29E760DC0D1E80E6267364440", "cartodb_id": 79, "name": "Velázquez", "line": "L4" }, "geometry": { "type": "Point", "coordinates": [ -3.68292, 40.42503 ] } },
{ "type": "Feature", "properties": { "the_geom": "0101000020E6100000A949F086346A0DC0E19A3BFA5F364440", "cartodb_id": 80, "name": "Goya", "line": "L4" }, "geometry": { "type": "Point", "coordinates": [ -3.676858, 40.424804 ] } },
{ "type": "Feature", "properties": { "the_geom": "0101000020E6100000A38FF98040670DC06D4F90D8EE364440", "cartodb_id": 81, "name": "Lista", "line": "L4" }, "geometry": { "type": "Point", "coordinates": [ -3.675416, 40.429164 ] } },
{ "type": "Feature", "properties": { "the_geom": "0101000020E61000009E8EC70C54660DC083C2A04CA3374440", "cartodb_id": 82, "name": "Diego de León", "line": "L4" }, "geometry": { "type": "Point", "coordinates": [ -3.674965, 40.434671 ] } },
{ "type": "Feature", "properties": { "the_geom": "0101000020E610000004F86EF3C6690DC02DD1596611384440", "cartodb_id": 83, "name": "Avenida de América", "line": "L4" }, "geometry": { "type": "Point", "coordinates": [ -3.676649, 40.438031 ] } },
{ "type": "Feature", "properties": { "the_geom": "0101000020E61000007E7214200A660DC0A8AB3B16DB384440", "cartodb_id": 84, "name": "Prosperidad", "line": "L4" }, "geometry": { "type": "Point", "coordinates": [ -3.674824, 40.444186 ] } },
{ "type": "Feature", "properties": { "the_geom": "0101000020E61000002404ABEAE5570DC06A50340F60394440", "cartodb_id": 85, "name": "Alfonso XIII", "line": "L4" }, "geometry": { "type": "Point", "coordinates": [ -3.667919, 40.448244 ] } },
{ "type": "Feature", "properties": { "the_geom": "0101000020E6100000B58993FB1D4A0DC0B24B546F0D3A4440", "cartodb_id": 86, "name": "Avenida de la Paz", "line": "L4" }, "geometry": { "type": "Point", "coordinates": [ -3.66119, 40.453535 ] } },
{ "type": "Feature", "properties": { "the_geom": "0101000020E6100000A038807EDF3F0DC0AF5DDA70583A4440", "cartodb_id": 87, "name": "Arturo Soria", "line": "L4" }, "geometry": { "type": "Point", "coordinates": [ -3.656188, 40.455824 ] } },
{ "type": "Feature", "properties": { "the_geom": "0101000020E6100000658F5033A42A0DC084B872F6CE3A4440", "cartodb_id": 88, "name": "Esperanza", "line": "L4" }, "geometry": { "type": "Point", "coordinates": [ -3.645821, 40.459441 ] } },
{ "type": "Feature", "properties": { "the_geom": "0101000020E61000006E7022FAB5150DC083E0F1ED5D3B4440", "cartodb_id": 89, "name": "Canillas", "line": "L4" }, "geometry": { "type": "Point", "coordinates": [ -3.635601, 40.463804 ] } },
{ "type": "Feature", "properties": { "the_geom": "0101000020E61000000D2F88484D1B0DC04E0B5EF4153C4440", "cartodb_id": 90, "name": "Mar de Cristal", "line": "L4" }, "geometry": { "type": "Point", "coordinates": [ -3.638331, 40.46942 ] } },
{ "type": "Feature", "properties": { "the_geom": "0101000020E6100000D5E1E82ADD1D0DC0FF03AC55BB3C4440", "cartodb_id": 91, "name": "San Lorenzo", "line": "L4" }, "geometry": { "type": "Point", "coordinates": [ -3.639582, 40.474467 ] } },
{ "type": "Feature", "properties": { "the_geom": "0101000020E6100000A5BC564277290DC0EBC726F9113D4440", "cartodb_id": 92, "name": "Parque de Santa María", "line": "L4" }, "geometry": { "type": "Point", "coordinates": [ -3.645247, 40.477111 ] } },
{ "type": "Feature", "properties": { "the_geom": "0101000020E61000007F30F0DC7B380DC07F4C6BD3D83C4440", "cartodb_id": 93, "name": "Hortaleza", "line": "L4" }, "geometry": { "type": "Point", "coordinates": [ -3.65258, 40.475367 ] } },
{ "type": "Feature", "properties": { "the_geom": "0101000020E6100000CAD6FA22A14D0DC053C554FA093D4440", "cartodb_id": 94, "name": "Manoteras", "line": "L4" }, "geometry": { "type": "Point", "coordinates": [ -3.662905, 40.476867 ] } },
{ "type": "Feature", "properties": { "the_geom": "0101000020E6100000AC1BEF8E8C550DC07D5D86FF743D4440", "cartodb_id": 95, "name": "Pinar de Chamartín", "line": "L4" }, "geometry": { "type": "Point", "coordinates": [ -3.666772, 40.480133 ] } },
{ "type": "Feature", "properties": { "the_geom": "0101000020E6100000DF59BBED42B30CC0294014CC983A4440", "cartodb_id": 96, "name": "Alameda de Osuna", "line": "L5" }, "geometry": { "type": "Point", "coordinates": [ -3.58753, 40.457788 ] } },
{ "type": "Feature", "properties": { "the_geom": "0101000020E6100000DCED7A698AC00CC05968E7340B3A4440", "cartodb_id": 97, "name": "El Capricho", "line": "L5" }, "geometry": { "type": "Point", "coordinates": [ -3.594014, 40.453467 ] } },
{ "type": "Feature", "properties": { "the_geom": "0101000020E610000020938C9C85DD0CC08C15359886394440", "cartodb_id": 98, "name": "Canillejas", "line": "L5" }, "geometry": { "type": "Point", "coordinates": [ -3.608165, 40.44942 ] } },
{ "type": "Feature", "properties": { "the_geom": "0101000020E610000071BF4351A0EF0CC01A6A1492CC384440", "cartodb_id": 99, "name": "Torre Arias", "line": "L5" }, "geometry": { "type": "Point", "coordinates": [ -3.617005, 40.443743 ] } },
{ "type": "Feature", "properties": { "the_geom": "0101000020E610000004C4245CC8030DC0D4D51D8B6D384440", "cartodb_id": 100, "name": "Suanzes", "line": "L5" }, "geometry": { "type": "Point", "coordinates": [ -3.626847, 40.440843 ] } },
{ "type": "Feature", "properties": { "the_geom": "0101000020E610000059E02BBAF51A0DC02123A0C211384440", "cartodb_id": 101, "name": "Ciudad Lineal", "line": "L5" }, "geometry": { "type": "Point", "coordinates": [ -3.638164, 40.438042 ] } },
{ "type": "Feature", "properties": { "the_geom": "0101000020E61000000E0EF62686240DC07E9065C1C4374440", "cartodb_id": 102, "name": "Pueblo Nuevo", "line": "L5" }, "geometry": { "type": "Point", "coordinates": [ -3.642834, 40.435692 ] } },
{ "type": "Feature", "properties": { "the_geom": "0101000020E6100000AF997CB3CD2D0DC01EA67D737F374440", "cartodb_id": 103, "name": "Quintana", "line": "L5" }, "geometry": { "type": "Point", "coordinates": [ -3.647365, 40.433577 ] } },
{ "type": "Feature", "properties": { "the_geom": "0101000020E61000009481035ABA420DC04640852348374440", "cartodb_id": 104, "name": "El Carmen", "line": "L5" }, "geometry": { "type": "Point", "coordinates": [ -3.657582, 40.431889 ] } },
{ "type": "Feature", "properties": { "the_geom": "0101000020E61000006EA6423C124F0DC0E0BBCD1B27374440", "cartodb_id": 105, "name": "Ventas", "line": "L5" }, "geometry": { "type": "Point", "coordinates": [ -3.663609, 40.430881 ] } },
{ "type": "Feature", "properties": { "the_geom": "0101000020E610000029A73D25E7640DC04AB20E4757374440", "cartodb_id": 106, "name": "Diego de León                 ", "line": "L5" }, "geometry": { "type": "Point", "coordinates": [ -3.674269, 40.432351 ] } },
{ "type": "Feature", "properties": { "the_geom": "0101000020E6100000D8EBDD1FEF750DC0732EC55565374440", "cartodb_id": 107, "name": "Núñez de Balboa", "line": "L5" }, "geometry": { "type": "Point", "coordinates": [ -3.682585, 40.43278 ] } },
{ "type": "Feature", "properties": { "the_geom": "0101000020E61000006AF6402B30840DC00695B88E71374440", "cartodb_id": 108, "name": "Rubén Darío", "line": "L5" }, "geometry": { "type": "Point", "coordinates": [ -3.689545, 40.433153 ] } },
{ "type": "Feature", "properties": { "the_geom": "0101000020E6100000187B2FBE688F0DC095BBCFF1D1364440", "cartodb_id": 109, "name": "Alonso Martínez", "line": "L5" }, "geometry": { "type": "Point", "coordinates": [ -3.695024, 40.428282 ] } },
{ "type": "Feature", "properties": { "the_geom": "0101000020E6100000CBC2D7D7BA940DC0C458A65F22364440", "cartodb_id": 110, "name": "Chueca", "line": "L5" }, "geometry": { "type": "Point", "coordinates": [ -3.697622, 40.422924 ] } },
{ "type": "Feature", "properties": { "the_geom": "0101000020E6100000D2C8E7154F9D0DC0AE7C96E7C1354440", "cartodb_id": 111, "name": "Gran Vía", "line": "L5" }, "geometry": { "type": "Point", "coordinates": [ -3.701811, 40.41998 ] } },
{ "type": "Feature", "properties": { "the_geom": "0101000020E610000074EE76BD34A50DC0B3D1393FC5354440", "cartodb_id": 112, "name": "Callao", "line": "L5" }, "geometry": { "type": "Point", "coordinates": [ -3.705667, 40.420082 ] } },
{ "type": "Feature", "properties": { "the_geom": "0101000020E610000072FC5069C4AC0DC0FEF0F3DF83354440", "cartodb_id": 113, "name": "Ópera", "line": "L5" }, "geometry": { "type": "Point", "coordinates": [ -3.709359, 40.418087 ] } },
{ "type": "Feature", "properties": { "the_geom": "0101000020E6100000FE9600FC53AA0DC0F8D85DA0A4344440", "cartodb_id": 114, "name": "La Latina", "line": "L5" }, "geometry": { "type": "Point", "coordinates": [ -3.708168, 40.411274 ] } },
{ "type": "Feature", "properties": { "the_geom": "0101000020E61000002D793C2D3FB00DC0A6BA809719344440", "cartodb_id": 115, "name": "Puerta de Toledo", "line": "L5" }, "geometry": { "type": "Point", "coordinates": [ -3.711058, 40.407031 ] } },
{ "type": "Feature", "properties": { "the_geom": "0101000020E61000005439ED2939A70DC0226FB9FAB1334440", "cartodb_id": 116, "name": "Acacias", "line": "L5" }, "geometry": { "type": "Point", "coordinates": [ -3.706652, 40.403869 ] } },
{ "type": "Feature", "properties": { "the_geom": "0101000020E610000081221631ECB00DC0DE3B6A4C88334440", "cartodb_id": 117, "name": "Pirámides", "line": "L5" }, "geometry": { "type": "Point", "coordinates": [ -3.711388, 40.402597 ] } },
{ "type": "Feature", "properties": { "the_geom": "0101000020E610000021E868554BBA0DC006802A6EDC324440", "cartodb_id": 118, "name": "Marqués de Vadillo", "line": "L5" }, "geometry": { "type": "Point", "coordinates": [ -3.715964, 40.397352 ] } },
{ "type": "Feature", "properties": { "the_geom": "0101000020E61000000FE6762FF7C90DC0D8F0F44A59324440", "cartodb_id": 119, "name": "Urgel", "line": "L5" }, "geometry": { "type": "Point", "coordinates": [ -3.723616, 40.39335 ] } },
{ "type": "Feature", "properties": { "the_geom": "0101000020E61000005531957EC2D90DC0605AD427B9314440", "cartodb_id": 120, "name": "Oporto", "line": "L5" }, "geometry": { "type": "Point", "coordinates": [ -3.731328, 40.388463 ] } },
{ "type": "Feature", "properties": { "the_geom": "0101000020E610000014950D6B2AEB0DC0D6A71C93C5314440", "cartodb_id": 121, "name": "Vista Alegre", "line": "L5" }, "geometry": { "type": "Point", "coordinates": [ -3.739827, 40.388842 ] } },
{ "type": "Feature", "properties": { "the_geom": "0101000020E61000005708ABB184F50DC06B662D05A4314440", "cartodb_id": 122, "name": "Carabanchel", "line": "L5" }, "geometry": { "type": "Point", "coordinates": [ -3.744882, 40.387818 ] } },
{ "type": "Feature", "properties": { "the_geom": "0101000020E61000000798F90E7E020EC0151A886533314440", "cartodb_id": 123, "name": "Eugenia de Montijo", "line": "L5" }, "geometry": { "type": "Point", "coordinates": [ -3.751217, 40.384381 ] } },
{ "type": "Feature", "properties": { "the_geom": "0101000020E610000013C2A38D23160EC08EC2F5285C314440", "cartodb_id": 124, "name": "Aluche", "line": "L5" }, "geometry": { "type": "Point", "coordinates": [ -3.76081, 40.385625 ] } },
{ "type": "Feature", "properties": { "the_geom": "0101000020E6100000FBE6FEEA711F0EC09C6ED921FE314440", "cartodb_id": 125, "name": "Empalme", "line": "L5" }, "geometry": { "type": "Point", "coordinates": [ -3.765354, 40.390568 ] } },
{ "type": "Feature", "properties": { "the_geom": "0101000020E6100000C30AB77C24250EC0CCB6D3D688324440", "cartodb_id": 126, "name": "Campamento", "line": "L5" }, "geometry": { "type": "Point", "coordinates": [ -3.768136, 40.394801 ] } },
{ "type": "Feature", "properties": { "the_geom": "0101000020E6100000BBD05CA791160EC0F148BC3C9D334440", "cartodb_id": 127, "name": "Casa de Campo", "line": "L5" }, "geometry": { "type": "Point", "coordinates": [ -3.76102, 40.403236 ] } },
{ "type": "Feature", "properties": { "the_geom": "0101000020E61000006A4DF38E53F40DC0E0D231E719334440", "cartodb_id": 128, "name": "Laguna", "line": "L6" }, "geometry": { "type": "Point", "coordinates": [ -3.7443, 40.399228 ] } },
{ "type": "Feature", "properties": { "the_geom": "0101000020E610000021B0726891ED0DC00116F9F543324440", "cartodb_id": 129, "name": "Carpetana", "line": "L6" }, "geometry": { "type": "Point", "coordinates": [ -3.741, 40.392699 ] } },
{ "type": "Feature", "properties": { "the_geom": "0101000020E610000006A1BC8FA3D90DC030D63730B9314440", "cartodb_id": 130, "name": "Oporto", "line": "L6" }, "geometry": { "type": "Point", "coordinates": [ -3.731269, 40.388464 ] } },
{ "type": "Feature", "properties": { "the_geom": "0101000020E61000005B01857AFAC80DC0E560360186314440", "cartodb_id": 131, "name": "Opañel", "line": "L6" }, "geometry": { "type": "Point", "coordinates": [ -3.723134, 40.386902 ] } },
{ "type": "Feature", "properties": { "the_geom": "0101000020E6100000A55F22DE3ABF0DC083893F8A3A314440", "cartodb_id": 132, "name": "Plaza Elíptica", "line": "L6" }, "geometry": { "type": "Point", "coordinates": [ -3.718374, 40.384599 ] } },
{ "type": "Feature", "properties": { "the_geom": "0101000020E6100000DA1324B6BBA70DC059C16F438C314440", "cartodb_id": 133, "name": "Usera", "line": "L6" }, "geometry": { "type": "Point", "coordinates": [ -3.706901, 40.387093 ] } },
{ "type": "Feature", "properties": { "the_geom": "0101000020E6100000C95EEFFE788F0DC02DD1596611324440", "cartodb_id": 134, "name": "Legazpi", "line": "L6" }, "geometry": { "type": "Point", "coordinates": [ -3.695055, 40.391156 ] } },
{ "type": "Feature", "properties": { "the_geom": "0101000020E6100000577A6D3656820DC04E9CDCEF50324440", "cartodb_id": 135, "name": "Arganzuela-Planetario", "line": "L6" }, "geometry": { "type": "Point", "coordinates": [ -3.688641, 40.393095 ] } },
{ "type": "Feature", "properties": { "the_geom": "0101000020E61000002D5A80B6D56C0DC0565C1C959B324440", "cartodb_id": 136, "name": "Méndez Álvaro", "line": "L6" }, "geometry": { "type": "Point", "coordinates": [ -3.678142, 40.395373 ] } },
{ "type": "Feature", "properties": { "the_geom": "0101000020E61000001A66683C11640DC0E1EEACDD76334440", "cartodb_id": 137, "name": "Pacífico", "line": "L6" }, "geometry": { "type": "Point", "coordinates": [ -3.673861, 40.402065 ] } },
{ "type": "Feature", "properties": { "the_geom": "0101000020E6100000764A07EBFF5C0DC05F42058717344440", "cartodb_id": 138, "name": "Conde de Casal", "line": "L6" }, "geometry": { "type": "Point", "coordinates": [ -3.67041, 40.406968 ] } },
{ "type": "Feature", "properties": { "the_geom": "0101000020E6100000C45BE7DF2E5B0DC0CC63CDC820354440", "cartodb_id": 139, "name": "Sainz de Baranda", "line": "L6" }, "geometry": { "type": "Point", "coordinates": [ -3.669523, 40.415063 ] } },
{ "type": "Feature", "properties": { "the_geom": "0101000020E61000003F1BB96E4A590DC078EFA83121364440", "cartodb_id": 140, "name": "O'Donnell", "line": "L6" }, "geometry": { "type": "Point", "coordinates": [ -3.668599, 40.422888 ] } },
{ "type": "Feature", "properties": { "the_geom": "0101000020E6100000EEF0D7648D5A0DC01E6E8786C5364440", "cartodb_id": 141, "name": "Manuel Becerra", "line": "L6" }, "geometry": { "type": "Point", "coordinates": [ -3.669215, 40.427903 ] } },
{ "type": "Feature", "properties": { "the_geom": "0101000020E6100000B79388F02F620DC0ED7F80B56A374440", "cartodb_id": 142, "name": "Diego de León", "line": "L6" }, "geometry": { "type": "Point", "coordinates": [ -3.672943, 40.432944 ] } },
{ "type": "Feature", "properties": { "the_geom": "0101000020E6100000B6679604A8690DC02DD1596611384440", "cartodb_id": 143, "name": "Avenida de América", "line": "L6" }, "geometry": { "type": "Point", "coordinates": [ -3.67659, 40.438031 ] } },
{ "type": "Feature", "properties": { "the_geom": "0101000020E6100000B7B41A12F7780DC08BA9F413CE384440", "cartodb_id": 144, "name": "República Argentina", "line": "L6" }, "geometry": { "type": "Point", "coordinates": [ -3.684065, 40.443789 ] } },
{ "type": "Feature", "properties": { "the_geom": "0101000020E6100000384BC972128A0DC0F67B629D2A394440", "cartodb_id": 145, "name": "Nuevos Ministerios", "line": "L6" }, "geometry": { "type": "Point", "coordinates": [ -3.692418, 40.446613 ] } },
{ "type": "Feature", "properties": { "the_geom": "0101000020E6100000968FA4A487A10DC014B2F33636394440", "cartodb_id": 146, "name": "Cuatro Caminos", "line": "L6" }, "geometry": { "type": "Point", "coordinates": [ -3.703872, 40.446967 ] } },
{ "type": "Feature", "properties": { "the_geom": "0101000020E6100000B14F00C5C8B20DC09BABE63922394440", "cartodb_id": 147, "name": "Guzmán el Bueno", "line": "L6" }, "geometry": { "type": "Point", "coordinates": [ -3.712297, 40.446357 ] } },
{ "type": "Feature", "properties": { "the_geom": "0101000020E610000024917D9065C10DC005FA449E24394440", "cartodb_id": 148, "name": "Metropolitano", "line": "L6" }, "geometry": { "type": "Point", "coordinates": [ -3.719432, 40.44643 ] } },
{ "type": "Feature", "properties": { "the_geom": "0101000020E6100000A92B9FE579D00DC0187D0569C6384440", "cartodb_id": 149, "name": "Ciudad Universitaria", "line": "L6" }, "geometry": { "type": "Point", "coordinates": [ -3.726795, 40.443555 ] } },
{ "type": "Feature", "properties": { "the_geom": "0101000020E61000009755D80C70C10DC05A80B6D5AC374440", "cartodb_id": 150, "name": "Moncloa", "line": "L6" }, "geometry": { "type": "Point", "coordinates": [ -3.719452, 40.434962 ] } },
{ "type": "Feature", "properties": { "the_geom": "0101000020E6100000156EF9484ABA0DC0511212691B374440", "cartodb_id": 151, "name": "Argüelles", "line": "L6" }, "geometry": { "type": "Point", "coordinates": [ -3.715962, 40.430524 ] } },
{ "type": "Feature", "properties": { "the_geom": "0101000020E610000011E2CAD93BC30DC0EFC2D66CE5354440", "cartodb_id": 152, "name": "Príncipe Pío", "line": "L6" }, "geometry": { "type": "Point", "coordinates": [ -3.720329, 40.421064 ] } },
{ "type": "Feature", "properties": { "the_geom": "0101000020E61000009838F24064D10DC02C7DE882FA344440", "cartodb_id": 153, "name": "Puerta del Ángel", "line": "L6" }, "geometry": { "type": "Point", "coordinates": [ -3.727242, 40.413895 ] } },
{ "type": "Feature", "properties": { "the_geom": "0101000020E6100000562C7E5358E90DC0F8FC304278344440", "cartodb_id": 154, "name": "Alto de Extremadura", "line": "L6" }, "geometry": { "type": "Point", "coordinates": [ -3.738938, 40.40992 ] } },
{ "type": "Feature", "properties": { "the_geom": "0101000020E6100000936B0A6476F60DC0F6622827DA334440", "cartodb_id": 155, "name": "Lucero", "line": "L6" }, "geometry": { "type": "Point", "coordinates": [ -3.745343, 40.405095 ] } },
{ "type": "Feature", "properties": { "the_geom": "0101000020E61000000B7E1B62BC460CC0E256410C74354440", "cartodb_id": 156, "name": "Hospital del Henares", "line": "L7" }, "geometry": { "type": "Point", "coordinates": [ -3.534539, 40.417604 ] } },
{ "type": "Feature", "properties": { "the_geom": "0101000020E6100000B988EFC4AC370CC01BB96E4A79354440", "cartodb_id": 157, "name": "Henares", "line": "L7" }, "geometry": { "type": "Point", "coordinates": [ -3.527185, 40.417764 ] } },
{ "type": "Feature", "properties": { "the_geom": "0101000020E61000006456EF703B340CC08FE3874A23364440", "cartodb_id": 158, "name": "Jarama", "line": "L7" }, "geometry": { "type": "Point", "coordinates": [ -3.525504, 40.422952 ] } },
{ "type": "Feature", "properties": { "the_geom": "0101000020E610000090847D3B89480CC00588821953364440", "cartodb_id": 159, "name": "San Fernando", "line": "L7" }, "geometry": { "type": "Point", "coordinates": [ -3.535418, 40.424411 ] } },
{ "type": "Feature", "properties": { "the_geom": "0101000020E610000074B7EBA529620CC06A87BF266B364440", "cartodb_id": 160, "name": "La Rambla", "line": "L7" }, "geometry": { "type": "Point", "coordinates": [ -3.547931, 40.425145 ] } },
{ "type": "Feature", "properties": { "the_geom": "0101000020E6100000F9F36DC1527D0CC0C32ADEC83C364440", "cartodb_id": 161, "name": "Coslada Central", "line": "L7" }, "geometry": { "type": "Point", "coordinates": [ -3.561193, 40.42373 ] } },
{ "type": "Feature", "properties": { "the_geom": "0101000020E6100000C5538F34B88D0CC0FBE4284014364440", "cartodb_id": 162, "name": "Barrio del Puerto", "line": "L7" }, "geometry": { "type": "Point", "coordinates": [ -3.569199, 40.422493 ] } },
{ "type": "Feature", "properties": { "the_geom": "0101000020E610000049B9FB1C1FCD0CC0EC34D25279374440", "cartodb_id": 163, "name": "Estadio Olímpico", "line": "L7" }, "geometry": { "type": "Point", "coordinates": [ -3.600157, 40.43339 ] } },
{ "type": "Feature", "properties": { "the_geom": "0101000020E6100000F54E05DCF3DC0CC039E97DE36B374440", "cartodb_id": 164, "name": "Las Musas", "line": "L7" }, "geometry": { "type": "Point", "coordinates": [ -3.607887, 40.43298 ] } },
{ "type": "Feature", "properties": { "the_geom": "0101000020E61000005C5A0D897BEC0CC0DB166536C8364440", "cartodb_id": 165, "name": "San Blas", "line": "L7" }, "geometry": { "type": "Point", "coordinates": [ -3.61547, 40.427985 ] } },
{ "type": "Feature", "properties": { "the_geom": "0101000020E61000001F0E12A27C010DC00B9B012EC8364440", "cartodb_id": 166, "name": "Simancas", "line": "L7" }, "geometry": { "type": "Point", "coordinates": [ -3.625726, 40.427984 ] } },
{ "type": "Feature", "properties": { "the_geom": "0101000020E61000008CD651D504110DC0E6797077D6364440", "cartodb_id": 167, "name": "García Noblejas", "line": "L7" }, "geometry": { "type": "Point", "coordinates": [ -3.63331, 40.42842 ] } },
{ "type": "Feature", "properties": { "the_geom": "0101000020E6100000AFEDED96E4200DC0FD6662BA10374440", "cartodb_id": 168, "name": "Ascao", "line": "L7" }, "geometry": { "type": "Point", "coordinates": [ -3.641061, 40.430198 ] } },
{ "type": "Feature", "properties": { "the_geom": "0101000020E61000000E0EF62686240DC031276893C3374440", "cartodb_id": 169, "name": "Pueblo Nuevo", "line": "L7" }, "geometry": { "type": "Point", "coordinates": [ -3.642834, 40.435656 ] } },
{ "type": "Feature", "properties": { "the_geom": "0101000020E6100000B9A0BE654E370DC0E47B462234384440", "cartodb_id": 170, "name": "Barrio de la Concepción", "line": "L7" }, "geometry": { "type": "Point", "coordinates": [ -3.652005, 40.439091 ] } },
{ "type": "Feature", "properties": { "the_geom": "0101000020E610000054C90050C54D0DC062BA10AB3F384440", "cartodb_id": 171, "name": "Parque de las Avenidas", "line": "L7" }, "geometry": { "type": "Point", "coordinates": [ -3.662974, 40.439443 ] } },
{ "type": "Feature", "properties": { "the_geom": "0101000020E610000049F59D5F94600DC04CFA7B293C384440", "cartodb_id": 172, "name": "Cartagena", "line": "L7" }, "geometry": { "type": "Point", "coordinates": [ -3.672158, 40.439336 ] } },
{ "type": "Feature", "properties": { "the_geom": "0101000020E610000068D7BD1589690DC02DD1596611384440", "cartodb_id": 173, "name": "Avenida de América", "line": "L7" }, "geometry": { "type": "Point", "coordinates": [ -3.676531, 40.438031 ] } },
{ "type": "Feature", "properties": { "the_geom": "0101000020E6100000B9C7D2872E880DC09A40118B18384440", "cartodb_id": 174, "name": "Gregorio Marañón", "line": "L7" }, "geometry": { "type": "Point", "coordinates": [ -3.691495, 40.438249 ] } },
{ "type": "Feature", "properties": { "the_geom": "0101000020E61000000E84640113980DC057B5A4A31C384440", "cartodb_id": 175, "name": "Alonso Cano", "line": "L7" }, "geometry": { "type": "Point", "coordinates": [ -3.699255, 40.438374 ] } },
{ "type": "Feature", "properties": { "the_geom": "0101000020E6100000492C29779FA30DC0A960545227384440", "cartodb_id": 176, "name": "Canal", "line": "L7" }, "geometry": { "type": "Point", "coordinates": [ -3.704894, 40.4387 ] } },
{ "type": "Feature", "properties": { "the_geom": "0101000020E6100000C48366D7BDB50DC0AA7D3A1E33384440", "cartodb_id": 177, "name": "Islas Filipinas", "line": "L7" }, "geometry": { "type": "Point", "coordinates": [ -3.713741, 40.43906 ] } },
{ "type": "Feature", "properties": { "the_geom": "0101000020E6100000B14F00C5C8B20DC04E42E90B21394440", "cartodb_id": 178, "name": "Guzmán el Bueno", "line": "L7" }, "geometry": { "type": "Point", "coordinates": [ -3.712297, 40.446321 ] } },
{ "type": "Feature", "properties": { "the_geom": "0101000020E6100000CC74AF93FAB20DC0B6BC72BD6D3A4440", "cartodb_id": 179, "name": "Francos Rodríguez", "line": "L7" }, "geometry": { "type": "Point", "coordinates": [ -3.712392, 40.456474 ] } },
{ "type": "Feature", "properties": { "the_geom": "0101000020E610000093ACC3D155BA0DC03BBF28417F3B4440", "cartodb_id": 180, "name": "Valdezarza", "line": "L7" }, "geometry": { "type": "Point", "coordinates": [ -3.715984, 40.464821 ] } },
{ "type": "Feature", "properties": { "the_geom": "0101000020E6100000C4AA4198DBBD0DC02907B309303C4440", "cartodb_id": 181, "name": "Antonio Machado", "line": "L7" }, "geometry": { "type": "Point", "coordinates": [ -3.717704, 40.470216 ] } },
{ "type": "Feature", "properties": { "the_geom": "0101000020E610000026F73B1405BA0DC0643DB5FAEA3C4440", "cartodb_id": 182, "name": "Peñagrande", "line": "L7" }, "geometry": { "type": "Point", "coordinates": [ -3.71583, 40.475921 ] } },
{ "type": "Feature", "properties": { "the_geom": "0101000020E610000079B130444EBF0DC0BF805EB8733D4440", "cartodb_id": 183, "name": "Avenida de la Ilustración", "line": "L7" }, "geometry": { "type": "Point", "coordinates": [ -3.718411, 40.480094 ] } },
{ "type": "Feature", "properties": { "the_geom": "0101000020E61000009132E202D0C80DC0A19927D7143E4440", "cartodb_id": 184, "name": "Lacoma", "line": "L7" }, "geometry": { "type": "Point", "coordinates": [ -3.723053, 40.485011 ] } },
{ "type": "Feature", "properties": { "the_geom": "0101000020E6100000C954C1A8A4CE0DC0C39B35785F3F4440", "cartodb_id": 185, "name": "Pitis", "line": "L7" }, "geometry": { "type": "Point", "coordinates": [ -3.7259, 40.495101 ] } },
{ "type": "Feature", "properties": { "the_geom": "0101000020E6100000384BC972128A0DC0B003E78C28394440", "cartodb_id": 186, "name": "Nuevos Ministerios", "line": "L8" }, "geometry": { "type": "Point", "coordinates": [ -3.692418, 40.44655 ] } },
{ "type": "Feature", "properties": { "the_geom": "0101000020E6100000161747E5266A0DC065FED137693A4440", "cartodb_id": 187, "name": "Colombia", "line": "L8" }, "geometry": { "type": "Point", "coordinates": [ -3.676832, 40.456336 ] } },
{ "type": "Feature", "properties": { "the_geom": "0101000020E6100000C5DCB5847C300DC0E3E0D231E73B4440", "cartodb_id": 188, "name": "Pinar del Rey", "line": "L8" }, "geometry": { "type": "Point", "coordinates": [ -3.648675, 40.467993 ] } },
{ "type": "Feature", "properties": { "the_geom": "0101000020E61000000D2F88484D1B0DC001A260C6143C4440", "cartodb_id": 189, "name": "Mar de Cristal", "line": "L8" }, "geometry": { "type": "Point", "coordinates": [ -3.638331, 40.469384 ] } },
{ "type": "Feature", "properties": { "the_geom": "0101000020E6100000CBBE2B82FFED0CC051F4C0C7603B4440", "cartodb_id": 190, "name": "Campo de las Naciones", "line": "L8" }, "geometry": { "type": "Point", "coordinates": [ -3.61621, 40.463891 ] } },
{ "type": "Feature", "properties": { "the_geom": "0101000020E61000005ED905836B8E0CC0BABBCE86FC3B4440", "cartodb_id": 191, "name": "Aeropuerto T1-T2-T3", "line": "L8" }, "geometry": { "type": "Point", "coordinates": [ -3.569541, 40.468644 ] } },
{ "type": "Feature", "properties": { "the_geom": "0101000020E6100000D93F4F0306A90CC0AEB9A3FFE53C4440", "cartodb_id": 192, "name": "Barajas", "line": "L8" }, "geometry": { "type": "Point", "coordinates": [ -3.582531, 40.475769 ] } },
{ "type": "Feature", "properties": { "the_geom": "0101000020E6100000FDC401F4FBBE0CC0C0417BF5F13E4440", "cartodb_id": 193, "name": "Aeropuerto T4", "line": "L8" }, "geometry": { "type": "Point", "coordinates": [ -3.593254, 40.491759 ] } },
{ "type": "Feature", "properties": { "the_geom": "0101000020E610000056EF703B34AC0DC0B345D26EF43F4440", "cartodb_id": 194, "name": "Paco de Lucía", "line": "L9" }, "geometry": { "type": "Point", "coordinates": [ -3.709084, 40.499647 ] } },
{ "type": "Feature", "properties": { "the_geom": "0101000020E6100000DC15FA6019BB0DC072361D01DC3E4440", "cartodb_id": 195, "name": "Mirasierra", "line": "L9" }, "geometry": { "type": "Point", "coordinates": [ -3.716357, 40.491089 ] } },
{ "type": "Feature", "properties": { "the_geom": "0101000020E6100000A69A594B01A90DC08463963D093E4440", "cartodb_id": 196, "name": "Herrera Oria", "line": "L9" }, "geometry": { "type": "Point", "coordinates": [ -3.707522, 40.484657 ] } },
{ "type": "Feature", "properties": { "the_geom": "0101000020E6100000003ACC9717A00DC0B98AC56F0A3D4440", "cartodb_id": 197, "name": "Barrio del Pilar", "line": "L9" }, "geometry": { "type": "Point", "coordinates": [ -3.70317, 40.476881 ] } },
{ "type": "Feature", "properties": { "the_geom": "0101000020E61000003637A6272C910DC072E14048163C4440", "cartodb_id": 198, "name": "Ventilla", "line": "L9" }, "geometry": { "type": "Point", "coordinates": [ -3.695885, 40.46943 ] } },
{ "type": "Feature", "properties": { "the_geom": "0101000020E61000004F3BFC3559830DC06D59BE2EC33B4440", "cartodb_id": 199, "name": "Plaza de Castilla", "line": "L9" }, "geometry": { "type": "Point", "coordinates": [ -3.689135, 40.466894 ] } },
{ "type": "Feature", "properties": { "the_geom": "0101000020E61000001D166A4DF36E0DC04E7ADFF8DA3B4440", "cartodb_id": 200, "name": "Duque de Pastrana", "line": "L9" }, "geometry": { "type": "Point", "coordinates": [ -3.679175, 40.46762 ] } },
{ "type": "Feature", "properties": { "the_geom": "0101000020E6100000359204E10A680DC024068195433B4440", "cartodb_id": 201, "name": "Pío XII", "line": "L9" }, "geometry": { "type": "Point", "coordinates": [ -3.675802, 40.463 ] } },
{ "type": "Feature", "properties": { "the_geom": "0101000020E6100000B537F8C2646A0DC0FE277FF78E3A4440", "cartodb_id": 202, "name": "Colombia", "line": "L9" }, "geometry": { "type": "Point", "coordinates": [ -3.67695, 40.457488 ] } },
{ "type": "Feature", "properties": { "the_geom": "0101000020E61000005E68AED3486B0DC06A8995D1C8394440", "cartodb_id": 203, "name": "Concha Espina", "line": "L9" }, "geometry": { "type": "Point", "coordinates": [ -3.677385, 40.451441 ] } },
{ "type": "Feature", "properties": { "the_geom": "0101000020E6100000EFAEB321FF6C0DC0F4E0EEACDD384440", "cartodb_id": 204, "name": "Cruz del Rayo", "line": "L9" }, "geometry": { "type": "Point", "coordinates": [ -3.678221, 40.444265 ] } },
{ "type": "Feature", "properties": { "the_geom": "0101000020E61000001747E5266A690DC0FD4CBD6E11384440", "cartodb_id": 205, "name": "Avenida de América", "line": "L9" }, "geometry": { "type": "Point", "coordinates": [ -3.676472, 40.438032 ] } },
{ "type": "Feature", "properties": { "the_geom": "0101000020E61000008FC2F5285C6F0DC0F3203D450E374440", "cartodb_id": 206, "name": "Núñez de Balboa", "line": "L9" }, "geometry": { "type": "Point", "coordinates": [ -3.679375, 40.430123 ] } },
{ "type": "Feature", "properties": { "the_geom": "0101000020E6100000ED9DD15625710DC080F0A1444B364440", "cartodb_id": 207, "name": "Príncipe de Vergara", "line": "L9" }, "geometry": { "type": "Point", "coordinates": [ -3.680247, 40.424172 ] } },
{ "type": "Feature", "properties": { "the_geom": "0101000020E61000000373F4F8BD6D0DC0C90050C58D354440", "cartodb_id": 208, "name": "Ibiza", "line": "L9" }, "geometry": { "type": "Point", "coordinates": [ -3.678585, 40.418389 ] } },
{ "type": "Feature", "properties": { "the_geom": "0101000020E6100000C45BE7DF2E5B0DC07FFACF9A1F354440", "cartodb_id": 209, "name": "Sainz de Baranda", "line": "L9" }, "geometry": { "type": "Point", "coordinates": [ -3.669523, 40.415027 ] } },
{ "type": "Feature", "properties": { "the_geom": "0101000020E61000001309A69A594B0DC0DEACC1FBAA344440", "cartodb_id": 210, "name": "Estrella", "line": "L9" }, "geometry": { "type": "Point", "coordinates": [ -3.661792, 40.411468 ] } },
{ "type": "Feature", "properties": { "the_geom": "0101000020E61000000C54C6BFCF380DC06AC18BBE82344440", "cartodb_id": 211, "name": "Vinateros", "line": "L9" }, "geometry": { "type": "Point", "coordinates": [ -3.65274, 40.41024 ] } },
{ "type": "Feature", "properties": { "the_geom": "0101000020E610000067EBE0606F220DC0B2D7BB3FDE334440", "cartodb_id": 212, "name": "Artilleros", "line": "L9" }, "geometry": { "type": "Point", "coordinates": [ -3.641814, 40.40522 ] } },
{ "type": "Feature", "properties": { "the_geom": "0101000020E6100000D07F0F5EBB140DC0786000E143334440", "cartodb_id": 213, "name": "Pavones", "line": "L9" }, "geometry": { "type": "Point", "coordinates": [ -3.635123, 40.400509 ] } },
{ "type": "Feature", "properties": { "the_geom": "0101000020E6100000C22E8A1EF8F80CC032FFE89B34334440", "cartodb_id": 214, "name": "Valdebernardo", "line": "L9" }, "geometry": { "type": "Point", "coordinates": [ -3.621567, 40.400043 ] } },
{ "type": "Feature", "properties": { "the_geom": "0101000020E6100000B12B2D23F5DE0CC0DADFD91EBD334440", "cartodb_id": 215, "name": "Vicálvaro", "line": "L9" }, "geometry": { "type": "Point", "coordinates": [ -3.608866, 40.404209 ] } },
{ "type": "Feature", "properties": { "the_geom": "0101000020E610000030D63730B9D10CC0ED612F14B0334440", "cartodb_id": 216, "name": "San Cipriano", "line": "L9" }, "geometry": { "type": "Point", "coordinates": [ -3.602404, 40.403811 ] } },
{ "type": "Feature", "properties": { "the_geom": "0101000020E610000097C62FBC92C40CC004BF0D315E334440", "cartodb_id": 217, "name": "Puerta de Arganda", "line": "L9" }, "geometry": { "type": "Point", "coordinates": [ -3.595983, 40.401312 ] } },
{ "type": "Feature", "properties": { "the_geom": "0101000020E61000008C98D9E7312A0CC09702D2FE072A4440", "cartodb_id": 218, "name": "Rivas Vaciamadrid", "line": "L9" }, "geometry": { "type": "Point", "coordinates": [ -3.520603, 40.328369 ] } },
{ "type": "Feature", "properties": { "the_geom": "0101000020E6100000C186A757CA320CC058E4D70FB12B4440", "cartodb_id": 219, "name": "Rivas Futura", "line": "L9" }, "geometry": { "type": "Point", "coordinates": [ -3.5248, 40.341341 ] } },
{ "type": "Feature", "properties": { "the_geom": "0101000020E610000004C765DCD4600CC0E3175E49F22E4440", "cartodb_id": 220, "name": "Rivas-Urbanizaciones", "line": "L9" }, "geometry": { "type": "Point", "coordinates": [ -3.547281, 40.366769 ] } },
{ "type": "Feature", "properties": { "the_geom": "0101000020E61000004704E3E0D2D10BC0AB7B6473D5284440", "cartodb_id": 221, "name": "La Poveda", "line": "L9" }, "geometry": { "type": "Point", "coordinates": [ -3.477453, 40.319014 ] } },
{ "type": "Feature", "properties": { "the_geom": "0101000020E6100000A7E0F08288940BC04DF8A57EDE264440", "cartodb_id": 222, "name": "Arganda del Rey", "line": "L9" }, "geometry": { "type": "Point", "coordinates": [ -3.447526, 40.303665 ] } },
{ "type": "Feature", "properties": { "the_geom": "0101000020E61000006FED444948E40CC093C5FD47A6474440", "cartodb_id": 223, "name": "Hospital Infanta Sofía", "line": "L10" }, "geometry": { "type": "Point", "coordinates": [ -3.611466, 40.559762 ] } },
{ "type": "Feature", "properties": { "the_geom": "0101000020E610000088D349B6BAFC0CC0CB48BDA772464440", "cartodb_id": 224, "name": "Reyes Católicos", "line": "L10" }, "geometry": { "type": "Point", "coordinates": [ -3.623403, 40.550374 ] } },
{ "type": "Feature", "properties": { "the_geom": "0101000020E61000000E9F7422C1140DC0F9A3A833F7464440", "cartodb_id": 225, "name": "Baunatal", "line": "L10" }, "geometry": { "type": "Point", "coordinates": [ -3.635134, 40.554419 ] } },
{ "type": "Feature", "properties": { "the_geom": "0101000020E6100000F9B48AFED02C0DC0118DEE2076464440", "cartodb_id": 226, "name": "Manuel de Falla", "line": "L10" }, "geometry": { "type": "Point", "coordinates": [ -3.646883, 40.55048 ] } },
{ "type": "Feature", "properties": { "the_geom": "0101000020E610000038984D8061190DC0DFC14F1C40454440", "cartodb_id": 227, "name": "Marqués de la Valdavia", "line": "L10" }, "geometry": { "type": "Point", "coordinates": [ -3.637393, 40.541019 ] } },
{ "type": "Feature", "properties": { "the_geom": "0101000020E6100000C3499A3FA6150DC018963FDF16444440", "cartodb_id": 228, "name": "La Moraleja", "line": "L10" }, "geometry": { "type": "Point", "coordinates": [ -3.635571, 40.531948 ] } },
{ "type": "Feature", "properties": { "the_geom": "0101000020E6100000302AA913D0440DC06DC83F3388434440", "cartodb_id": 229, "name": "La Granja", "line": "L10" }, "geometry": { "type": "Point", "coordinates": [ -3.6586, 40.527594 ] } },
{ "type": "Feature", "properties": { "the_geom": "0101000020E6100000F910548D5E4D0DC0F0FCA204FD414440", "cartodb_id": 230, "name": "Ronda de la Comunicación", "line": "L10" }, "geometry": { "type": "Point", "coordinates": [ -3.662778, 40.515534 ] } },
{ "type": "Feature", "properties": { "the_geom": "0101000020E6100000143E5B07075B0DC09E5E29CB10414440", "cartodb_id": 231, "name": "Las Tablas", "line": "L10" }, "geometry": { "type": "Point", "coordinates": [ -3.669447, 40.508325 ] } },
{ "type": "Feature", "properties": { "the_geom": "0101000020E61000006B2E3718EA900DC0E9263108AC404440", "cartodb_id": 232, "name": "Montecarmelo", "line": "L10" }, "geometry": { "type": "Point", "coordinates": [ -3.695759, 40.50525 ] } },
{ "type": "Feature", "properties": { "the_geom": "0101000020E610000039D1AE42CA8F0DC0AA60545227404440", "cartodb_id": 233, "name": "Tres Olivos", "line": "L10" }, "geometry": { "type": "Point", "coordinates": [ -3.69521, 40.5012 ] } },
{ "type": "Feature", "properties": { "the_geom": "0101000020E610000075745C8DEC8A0DC0DBF7A8BF5E3F4440", "cartodb_id": 234, "name": "Fuencarral", "line": "L10" }, "geometry": { "type": "Point", "coordinates": [ -3.692834, 40.495079 ] } },
{ "type": "Feature", "properties": { "the_geom": "0101000020E6100000672B2FF99F7C0DC01FDAC70A7E3D4440", "cartodb_id": 235, "name": "Begoña", "line": "L10" }, "geometry": { "type": "Point", "coordinates": [ -3.685852, 40.480409 ] } },
{ "type": "Feature", "properties": { "the_geom": "0101000020E61000000D91D3D7F3750DC075CDE49B6D3C4440", "cartodb_id": 236, "name": "Chamartín", "line": "L10" }, "geometry": { "type": "Point", "coordinates": [ -3.682594, 40.472095 ] } },
{ "type": "Feature", "properties": { "the_geom": "0101000020E61000004487C09140830DC06D59BE2EC33B4440", "cartodb_id": 237, "name": "Plaza de Castilla", "line": "L10" }, "geometry": { "type": "Point", "coordinates": [ -3.689088, 40.466894 ] } },
{ "type": "Feature", "properties": { "the_geom": "0101000020E61000007406465ED6840DC05A66118AAD3A4440", "cartodb_id": 238, "name": "Cuzco", "line": "L10" }, "geometry": { "type": "Point", "coordinates": [ -3.689862, 40.458421 ] } },
{ "type": "Feature", "properties": { "the_geom": "0101000020E610000000FA7DFFE6850DC08BC3995FCD394440", "cartodb_id": 239, "name": "Santiago Bernabéu", "line": "L10" }, "geometry": { "type": "Point", "coordinates": [ -3.690382, 40.45158 ] } },
{ "type": "Feature", "properties": { "the_geom": "0101000020E6100000384BC972128A0DC0A912656F29394440", "cartodb_id": 240, "name": "Nuevos Ministerios", "line": "L10" }, "geometry": { "type": "Point", "coordinates": [ -3.692418, 40.446577 ] } },
{ "type": "Feature", "properties": { "the_geom": "0101000020E6100000DA1324B6BB870DC06B82A8FB00384440", "cartodb_id": 241, "name": "Gregorio Marañón", "line": "L10" }, "geometry": { "type": "Point", "coordinates": [ -3.691276, 40.43753 ] } },
{ "type": "Feature", "properties": { "the_geom": "0101000020E6100000957CEC2E50920DC02BBEA1F0D9364440", "cartodb_id": 242, "name": "Alonso Martínez", "line": "L10" }, "geometry": { "type": "Point", "coordinates": [ -3.696442, 40.428526 ] } },
{ "type": "Feature", "properties": { "the_geom": "0101000020E6100000ECD5C743DF9D0DC0B5C2F4BD86364440", "cartodb_id": 243, "name": "Tribunal", "line": "L10" }, "geometry": { "type": "Point", "coordinates": [ -3.702086, 40.425987 ] } },
{ "type": "Feature", "properties": { "the_geom": "0101000020E61000002076A6D079AD0DC0B1DCD26A48364440", "cartodb_id": 244, "name": "Plaza de España", "line": "L10" }, "geometry": { "type": "Point", "coordinates": [ -3.709705, 40.424085 ] } },
{ "type": "Feature", "properties": { "the_geom": "0101000020E610000011E2CAD93BC30DC0A359D93EE4354440", "cartodb_id": 245, "name": "Príncipe Pío", "line": "L10" }, "geometry": { "type": "Point", "coordinates": [ -3.720329, 40.421028 ] } },
{ "type": "Feature", "properties": { "the_geom": "0101000020E61000000B8FFD2C96E20DC04A61DEE34C354440", "cartodb_id": 246, "name": "Lago", "line": "L10" }, "geometry": { "type": "Point", "coordinates": [ -3.735638, 40.416409 ] } },
{ "type": "Feature", "properties": { "the_geom": "0101000020E6100000387EA83462060EC04941B79734344440", "cartodb_id": 247, "name": "Batán", "line": "L10" }, "geometry": { "type": "Point", "coordinates": [ -3.753117, 40.407855 ] } },
{ "type": "Feature", "properties": { "the_geom": "0101000020E6100000B613252191160EC0A4DFBE0E9C334440", "cartodb_id": 248, "name": "Casa de Campo", "line": "L10" }, "geometry": { "type": "Point", "coordinates": [ -3.761019, 40.4032 ] } },
{ "type": "Feature", "properties": { "the_geom": "0101000020E6100000B72407EC6A320EC05FAE450BD0324440", "cartodb_id": 249, "name": "Colonia Jardín", "line": "L10" }, "geometry": { "type": "Point", "coordinates": [ -3.774618, 40.396974 ] } },
{ "type": "Feature", "properties": { "the_geom": "0101000020E610000068226C787A450EC07AD976DA1A314440", "cartodb_id": 250, "name": "Aviación Española", "line": "L10" }, "geometry": { "type": "Point", "coordinates": [ -3.783925, 40.383632 ] } },
{ "type": "Feature", "properties": { "the_geom": "0101000020E61000002FBB270F0B550EC0DEE1766858304440", "cartodb_id": 251, "name": "Cuatro Vientos", "line": "L10" }, "geometry": { "type": "Point", "coordinates": [ -3.791525, 40.377698 ] } },
{ "type": "Feature", "properties": { "the_geom": "0101000020E610000058207A5226750EC063E60297C72C4440", "cartodb_id": 252, "name": "Joaquín Vilumbrales", "line": "L10" }, "geometry": { "type": "Point", "coordinates": [ -3.807202, 40.349841 ] } },
{ "type": "Feature", "properties": { "the_geom": "0101000020E6100000797764AC367F0EC0E126A3CA302C4440", "cartodb_id": 253, "name": "Puerta del Sur", "line": "L10" }, "geometry": { "type": "Point", "coordinates": [ -3.812116, 40.345239 ] } },
{ "type": "Feature", "properties": { "the_geom": "0101000020E6100000063F7100FDBE0DC083893F8A3A314440", "cartodb_id": 254, "name": "Plaza Elíptica", "line": "L11" }, "geometry": { "type": "Point", "coordinates": [ -3.718256, 40.384599 ] } },
{ "type": "Feature", "properties": { "the_geom": "0101000020E610000073309B00C3D20DC086376BF0BE304440", "cartodb_id": 255, "name": "Abrantes", "line": "L11" }, "geometry": { "type": "Point", "coordinates": [ -3.727911, 40.380827 ] } },
{ "type": "Feature", "properties": { "the_geom": "0101000020E61000007E1CCD9195DF0DC0F2EF332E1C304440", "cartodb_id": 256, "name": "Pan Bendito", "line": "L11" }, "geometry": { "type": "Point", "coordinates": [ -3.734172, 40.37586 ] } },
{ "type": "Feature", "properties": { "the_geom": "0101000020E610000010381268B0E90DC0ACFD9DEDD12F4440", "cartodb_id": 257, "name": "San Francisco", "line": "L11" }, "geometry": { "type": "Point", "coordinates": [ -3.739106, 40.373594 ] } },
{ "type": "Feature", "properties": { "the_geom": "0101000020E61000008DB62A89EC030EC0B51666A19D2F4440", "cartodb_id": 258, "name": "Carabanchel Alto    ", "line": "L11" }, "geometry": { "type": "Point", "coordinates": [ -3.751916, 40.371998 ] } },
{ "type": "Feature", "properties": { "the_geom": "0101000020E61000005E2BA1BB240E0EC0A94E07B29E2E4440", "cartodb_id": 259, "name": "La Peseta", "line": "L11" }, "geometry": { "type": "Point", "coordinates": [ -3.756906, 40.364218 ] } },
{ "type": "Feature", "properties": { "the_geom": "0101000020E610000024BC3D0801390EC0D6C4025FD12D4440", "cartodb_id": 260, "name": "La Fortuna", "line": "L11" }, "geometry": { "type": "Point", "coordinates": [ -3.777834, 40.357952 ] } },
{ "type": "Feature", "properties": { "the_geom": "0101000020E6100000E34EE960FD7F0EC014984EEB362C4440", "cartodb_id": 261, "name": "Puerta del Sur", "line": "L12" }, "geometry": { "type": "Point", "coordinates": [ -3.812495, 40.345426 ] } },
{ "type": "Feature", "properties": { "the_geom": "0101000020E61000003A8A73D4D1910EC05B087250C22C4440", "cartodb_id": 262, "name": "Parque Lisboa", "line": "L12" }, "geometry": { "type": "Point", "coordinates": [ -3.821201, 40.34968 ] } },
{ "type": "Feature", "properties": { "the_geom": "0101000020E61000002BBCCB457CA70EC0BAF94674CF2C4440", "cartodb_id": 263, "name": "Alcorcón Central", "line": "L12" }, "geometry": { "type": "Point", "coordinates": [ -3.83178, 40.350081 ] } },
{ "type": "Feature", "properties": { "the_geom": "0101000020E610000037B1C05774CB0EC0897D0228462C4440", "cartodb_id": 264, "name": "Parque Oeste", "line": "L12" }, "geometry": { "type": "Point", "coordinates": [ -3.849343, 40.345891 ] } },
{ "type": "Feature", "properties": { "the_geom": "0101000020E61000009372F7393EFA0EC0B4AA251DE52A4440", "cartodb_id": 265, "name": "Universidad Rey J. Carlos", "line": "L12" }, "geometry": { "type": "Point", "coordinates": [ -3.872189, 40.335117 ] } },
{ "type": "Feature", "properties": { "the_geom": "0101000020E61000009AFEEC478AE80EC0C4EA8F300C2A4440", "cartodb_id": 266, "name": "Móstoles Central", "line": "L12" }, "geometry": { "type": "Point", "coordinates": [ -3.863545, 40.328497 ] } },
{ "type": "Feature", "properties": { "the_geom": "0101000020E6100000910DA48B4DEB0EC03CF4DDAD2C294440", "cartodb_id": 267, "name": "Pradillo", "line": "L12" }, "geometry": { "type": "Point", "coordinates": [ -3.864894, 40.321676 ] } },
{ "type": "Feature", "properties": { "the_geom": "0101000020E6100000AC90F2936AFF0EC0A4BF97C283284440", "cartodb_id": 268, "name": "Hospital de Móstoles", "line": "L12" }, "geometry": { "type": "Point", "coordinates": [ -3.874715, 40.316521 ] } },
{ "type": "Feature", "properties": { "the_geom": "0101000020E610000050E3DEFC86E90EC0BD5296218E274440", "cartodb_id": 269, "name": "Manuela Malasaña", "line": "L12" }, "geometry": { "type": "Point", "coordinates": [ -3.864027, 40.309025 ] } },
{ "type": "Feature", "properties": { "the_geom": "0101000020E610000077F700DD97B30EC037A968ACFD254440", "cartodb_id": 270, "name": "Loranca", "line": "L12" }, "geometry": { "type": "Point", "coordinates": [ -3.837692, 40.296804 ] } },
{ "type": "Feature", "properties": { "the_geom": "0101000020E6100000359204E10A880EC0DE72F56393244440", "cartodb_id": 271, "name": "Hospital de Fuenlabrada", "line": "L12" }, "geometry": { "type": "Point", "coordinates": [ -3.816427, 40.285748 ] } },
{ "type": "Feature", "properties": { "the_geom": "0101000020E6100000E90DF7915B730EC04162BB7B80244440", "cartodb_id": 272, "name": "Parque Europa", "line": "L12" }, "geometry": { "type": "Point", "coordinates": [ -3.806327, 40.285171 ] } },
{ "type": "Feature", "properties": { "the_geom": "0101000020E61000002CD7DB662A640EC059BF99982E244440", "cartodb_id": 273, "name": "Fuenlabrada Central", "line": "L12" }, "geometry": { "type": "Point", "coordinates": [ -3.798909, 40.282672 ] } },
{ "type": "Feature", "properties": { "the_geom": "0101000020E61000004B530438BD4B0EC0912C6002B7244440", "cartodb_id": 274, "name": "Parque de los Estados", "line": "L12" }, "geometry": { "type": "Point", "coordinates": [ -3.786982, 40.286835 ] } },
{ "type": "Feature", "properties": { "the_geom": "0101000020E6100000A393A5D6FB0D0EC0350A4966F5244440", "cartodb_id": 275, "name": "Arroyo Culebro", "line": "L12" }, "geometry": { "type": "Point", "coordinates": [ -3.756828, 40.288739 ] } },
{ "type": "Feature", "properties": { "the_geom": "0101000020E61000001A2E724F57F70DC0C6DFF60489254440", "cartodb_id": 276, "name": "Conservatorio", "line": "L12" }, "geometry": { "type": "Point", "coordinates": [ -3.745772, 40.293244 ] } },
{ "type": "Feature", "properties": { "the_geom": "0101000020E610000058E1968FA4E40DC035B401D880264440", "cartodb_id": 277, "name": "Alonso de Mendoza", "line": "L12" }, "geometry": { "type": "Point", "coordinates": [ -3.736642, 40.300807 ] } },
{ "type": "Feature", "properties": { "the_geom": "0101000020E61000006D37C1374DDF0DC09CA38E8EAB274440", "cartodb_id": 278, "name": "Getafe Central", "line": "L12" }, "geometry": { "type": "Point", "coordinates": [ -3.734034, 40.309923 ] } },
{ "type": "Feature", "properties": { "the_geom": "0101000020E6100000B9490C022BC70DC076F69507E9274440", "cartodb_id": 279, "name": "Juan de la Cierva", "line": "L12" }, "geometry": { "type": "Point", "coordinates": [ -3.72225, 40.311799 ] } },
{ "type": "Feature", "properties": { "the_geom": "0101000020E61000008C2B2E8ECAAD0DC0706072A3C8284440", "cartodb_id": 280, "name": "El Casar", "line": "L12" }, "geometry": { "type": "Point", "coordinates": [ -3.709859, 40.318623 ] } },
{ "type": "Feature", "properties": { "the_geom": "0101000020E6100000E0D91EBDE1BE0DC0C45A7C0A80294440", "cartodb_id": 281, "name": "Los Espartales", "line": "L12" }, "geometry": { "type": "Point", "coordinates": [ -3.718204, 40.32422 ] } },
{ "type": "Feature", "properties": { "the_geom": "0101000020E6100000CD599F724CD60DC07F1475E61E2A4440", "cartodb_id": 282, "name": "El Bercial", "line": "L12" }, "geometry": { "type": "Point", "coordinates": [ -3.729638, 40.329068 ] } },
{ "type": "Feature", "properties": { "the_geom": "0101000020E61000000DA837A3E6EB0DC0BF64E3C1162B4440", "cartodb_id": 283, "name": "El Carrascal", "line": "L12" }, "geometry": { "type": "Point", "coordinates": [ -3.740186, 40.336632 ] } },
{ "type": "Feature", "properties": { "the_geom": "0101000020E610000040F7E5CC76050EC0DE54A4C2D82A4440", "cartodb_id": 284, "name": "Julián Besteiro", "line": "L12" }, "geometry": { "type": "Point", "coordinates": [ -3.752668, 40.33474 ] } },
{ "type": "Feature", "properties": { "the_geom": "0101000020E61000006155BDFC4E130EC061FC34EECD294440", "cartodb_id": 285, "name": "Casa del Reloj", "line": "L12" }, "geometry": { "type": "Point", "coordinates": [ -3.759428, 40.326597 ] } },
{ "type": "Feature", "properties": { "the_geom": "0101000020E6100000426150A6D1240EC07B7BD7A02F294440", "cartodb_id": 286, "name": "Hospital Severo Ochoa", "line": "L12" }, "geometry": { "type": "Point", "coordinates": [ -3.767978, 40.321766 ] } },
{ "type": "Feature", "properties": { "the_geom": "0101000020E61000007823F3C81F2C0EC09E95B4E21B2A4440", "cartodb_id": 287, "name": "Leganés Central", "line": "L12" }, "geometry": { "type": "Point", "coordinates": [ -3.771545, 40.328976 ] } },
{ "type": "Feature", "properties": { "the_geom": "0101000020E6100000A702EE79FE340EC085B18520072B4440", "cartodb_id": 288, "name": "San Nicasio", "line": "L12" }, "geometry": { "type": "Point", "coordinates": [ -3.775876, 40.336155 ] } },
{ "type": "Feature", "properties": { "the_geom": "0101000020E61000003ACB2C42B1550DC07D5D86FF743D4440", "cartodb_id": 289, "name": "Pinar de Chamartín", "line": "ML1" }, "geometry": { "type": "Point", "coordinates": [ -3.666842, 40.480133 ] } },
{ "type": "Feature", "properties": { "the_geom": "0101000020E610000091442FA3584E0DC0DBDE6E490E3E4440", "cartodb_id": 290, "name": "Fuente de la Mora", "line": "ML1" }, "geometry": { "type": "Point", "coordinates": [ -3.663255, 40.484811 ] } },
{ "type": "Feature", "properties": { "the_geom": "0101000020E610000043DD0720B5490DC0BC900E0F613E4440", "cartodb_id": 291, "name": "Virgen del Cortijo", "line": "ML1" }, "geometry": { "type": "Point", "coordinates": [ -3.66099, 40.487337 ] } },
{ "type": "Feature", "properties": { "the_geom": "0101000020E6100000CB48BDA7723A0DC08FE3874A233E4440", "cartodb_id": 292, "name": "Antonio Saura", "line": "ML1" }, "geometry": { "type": "Point", "coordinates": [ -3.653539, 40.485452 ] } },
{ "type": "Feature", "properties": { "the_geom": "0101000020E61000008F8CD5E6FF350DC099B33EE5983E4440", "cartodb_id": 293, "name": "Álvarez de Villaamil", "line": "ML1" }, "geometry": { "type": "Point", "coordinates": [ -3.651367, 40.489041 ] } },
{ "type": "Feature", "properties": { "the_geom": "0101000020E610000018EAB0C22D3F0DC087F546AD303F4440", "cartodb_id": 294, "name": "Blasco Ibáñez", "line": "ML1" }, "geometry": { "type": "Point", "coordinates": [ -3.655849, 40.493673 ] } },
{ "type": "Feature", "properties": { "the_geom": "0101000020E6100000ACC43C2B69450DC08F705AF0A23F4440", "cartodb_id": 295, "name": "María Tudor", "line": "ML1" }, "geometry": { "type": "Point", "coordinates": [ -3.658892, 40.49716 ] } },
{ "type": "Feature", "properties": { "the_geom": "0101000020E6100000FD1873D712520DC03AB187F6B1404440", "cartodb_id": 296, "name": "Palas de Rey", "line": "ML1" }, "geometry": { "type": "Point", "coordinates": [ -3.665075, 40.505431 ] } },
{ "type": "Feature", "properties": { "the_geom": "0101000020E6100000706072A3C85A0DC05DD72FD80D414440", "cartodb_id": 297, "name": "Las Tablas", "line": "ML1" }, "geometry": { "type": "Point", "coordinates": [ -3.669328, 40.508235 ] } },
{ "type": "Feature", "properties": { "the_geom": "0101000020E6100000AD70CB4752320EC02F2AA913D0324440", "cartodb_id": 298, "name": "Colonia Jardín", "line": "ML2" }, "geometry": { "type": "Point", "coordinates": [ -3.774571, 40.396975 ] } },
{ "type": "Feature", "properties": { "the_geom": "0101000020E6100000501C40BFEF3F0EC001C11C3D7E334440", "cartodb_id": 299, "name": "Prado de la Vega", "line": "ML2" }, "geometry": { "type": "Point", "coordinates": [ -3.781219, 40.40229 ] } },
{ "type": "Feature", "properties": { "the_geom": "0101000020E610000033FB3C4679460EC0145E82531F344440", "cartodb_id": 300, "name": "Colonia de los Ángeles", "line": "ML2" }, "geometry": { "type": "Point", "coordinates": [ -3.784411, 40.407206 ] } },
{ "type": "Feature", "properties": { "the_geom": "0101000020E6100000946A9F8EC74C0EC0B91798158A344440", "cartodb_id": 301, "name": "Prado del Rey", "line": "ML2" }, "geometry": { "type": "Point", "coordinates": [ -3.78749, 40.410464 ] } },
{ "type": "Feature", "properties": { "the_geom": "0101000020E61000008D4468041B570EC014950D6B2A354440", "cartodb_id": 302, "name": "Somosaguas Sur", "line": "ML2" }, "geometry": { "type": "Point", "coordinates": [ -3.792532, 40.415357 ] } },
{ "type": "Feature", "properties": { "the_geom": "0101000020E61000008102EFE4D3630EC012A0A696AD354440", "cartodb_id": 303, "name": "Somosaguas Centro", "line": "ML2" }, "geometry": { "type": "Point", "coordinates": [ -3.798744, 40.41936 ] } },
{ "type": "Feature", "properties": { "the_geom": "0101000020E6100000F0C34142946F0EC0F8FD9B1727364440", "cartodb_id": 304, "name": "Pozuelo Oeste", "line": "ML2" }, "geometry": { "type": "Point", "coordinates": [ -3.804482, 40.423068 ] } },
{ "type": "Feature", "properties": { "the_geom": "0101000020E610000028081EDFDE750EC044300E2E1D374440", "cartodb_id": 305, "name": "Bélgica", "line": "ML2" }, "geometry": { "type": "Point", "coordinates": [ -3.807554, 40.430578 ] } },
{ "type": "Feature", "properties": { "the_geom": "0101000020E610000072C5C551B9690EC02AC93A1C5D374440", "cartodb_id": 306, "name": "Dos Castillas", "line": "ML2" }, "geometry": { "type": "Point", "coordinates": [ -3.801623, 40.432529 ] } },
{ "type": "Feature", "properties": { "the_geom": "0101000020E610000006D847A7AE5C0EC0B6F3FDD478374440", "cartodb_id": 307, "name": "Campus de Somosaguas", "line": "ML2" }, "geometry": { "type": "Point", "coordinates": [ -3.795255, 40.433375 ] } },
{ "type": "Feature", "properties": { "the_geom": "0101000020E61000004CDD955D30580EC0FF907EFB3A384440", "cartodb_id": 308, "name": "Avenida de Europa", "line": "ML2" }, "geometry": { "type": "Point", "coordinates": [ -3.793061, 40.4393 ] } },
{ "type": "Feature", "properties": { "the_geom": "0101000020E61000000EB743C362540EC0D89DEE3CF1384440", "cartodb_id": 309, "name": "Berna", "line": "ML2" }, "geometry": { "type": "Point", "coordinates": [ -3.791204, 40.444862 ] } },
{ "type": "Feature", "properties": { "the_geom": "0101000020E6100000997CB3CD8D490EC0E509849D62394440", "cartodb_id": 310, "name": "Estación de Aravaca", "line": "ML2" }, "geometry": { "type": "Point", "coordinates": [ -3.785915, 40.448322 ] } },
{ "type": "Feature", "properties": { "the_geom": "0101000020E61000005CE0F25833320EC02F2AA913D0324440", "cartodb_id": 311, "name": "Colonia Jardín", "line": "ML3" }, "geometry": { "type": "Point", "coordinates": [ -3.774512, 40.396975 ] } },
{ "type": "Feature", "properties": { "the_geom": "0101000020E61000000DC68844A1450EC046EA3D95D3324440", "cartodb_id": 312, "name": "Ciudad de la Imagen", "line": "ML3" }, "geometry": { "type": "Point", "coordinates": [ -3.783999, 40.397082 ] } },
{ "type": "Feature", "properties": { "the_geom": "0101000020E6100000FD6A0E10CC510EC06B63EC8497324440", "cartodb_id": 313, "name": "José Isbert", "line": "ML3" }, "geometry": { "type": "Point", "coordinates": [ -3.78994, 40.395249 ] } },
{ "type": "Feature", "properties": { "the_geom": "0101000020E610000027DC2BF3565D0EC0A16AF46A80324440", "cartodb_id": 314, "name": "Ciudad del Cine", "line": "ML3" }, "geometry": { "type": "Point", "coordinates": [ -3.795576, 40.394544 ] } },
{ "type": "Feature", "properties": { "the_geom": "0101000020E610000031B77BB94F6E0EC0FC5069C4CC324440", "cartodb_id": 315, "name": "Cocheras", "line": "ML3" }, "geometry": { "type": "Point", "coordinates": [ -3.803863, 40.396874 ] } },
{ "type": "Feature", "properties": { "the_geom": "0101000020E61000007347FFCBB5880EC018C748F608334440", "cartodb_id": 316, "name": "Retamares", "line": "ML3" }, "geometry": { "type": "Point", "coordinates": [ -3.816753, 40.398711 ] } },
{ "type": "Feature", "properties": { "the_geom": "0101000020E6100000A59E05A1BCAF0EC0AF3E1EFAEE324440", "cartodb_id": 317, "name": "Montepríncipe", "line": "ML3" }, "geometry": { "type": "Point", "coordinates": [ -3.835809, 40.397918 ] } },
{ "type": "Feature", "properties": { "the_geom": "0101000020E6100000F8FC304278B40EC006137F1475324440", "cartodb_id": 318, "name": "Ventorro del Cano", "line": "ML3" }, "geometry": { "type": "Point", "coordinates": [ -3.83812, 40.394198 ] } },
{ "type": "Feature", "properties": { "the_geom": "0101000020E6100000B9C7D2872EC80EC0B6476FB88F324440", "cartodb_id": 319, "name": "Prado del Espino", "line": "ML3" }, "geometry": { "type": "Point", "coordinates": [ -3.847745, 40.395011 ] } },
{ "type": "Feature", "properties": { "the_geom": "0101000020E61000008DD2A57F49EA0EC0E75086AA98324440", "cartodb_id": 320, "name": "Cantabria", "line": "ML3" }, "geometry": { "type": "Point", "coordinates": [ -3.864398, 40.395284 ] } },
{ "type": "Feature", "properties": { "the_geom": "0101000020E6100000842C0B26FE080FC059BBED4273334440", "cartodb_id": 321, "name": "Ferial de Boadilla", "line": "ML3" }, "geometry": { "type": "Point", "coordinates": [ -3.879391, 40.401955 ] } },
{ "type": "Feature", "properties": { "the_geom": "0101000020E6100000158BDF14560A0FC0399CF9D51C344440", "cartodb_id": 322, "name": "Boadilla Centro", "line": "ML3" }, "geometry": { "type": "Point", "coordinates": [ -3.880047, 40.40713 ] } },
{ "type": "Feature", "properties": { "the_geom": "0101000020E61000001D0247020D160FC0460A65E1EB334440", "cartodb_id": 323, "name": "Nuevo Mundo", "line": "ML3" }, "geometry": { "type": "Point", "coordinates": [ -3.885767, 40.405636 ] } },
{ "type": "Feature", "properties": { "the_geom": "0101000020E6100000D206600322240FC0C0ED0912DB334440", "cartodb_id": 324, "name": "Siglo XXI", "line": "ML3" }, "geometry": { "type": "Point", "coordinates": [ -3.892643, 40.405123 ] } },
{ "type": "Feature", "properties": { "the_geom": "0101000020E6100000CB845FEAE72D0FC052094FE8F5334440", "cartodb_id": 325, "name": "Infante Don Luís", "line": "ML3" }, "geometry": { "type": "Point", "coordinates": [ -3.897415, 40.405942 ] } },
{ "type": "Feature", "properties": { "the_geom": "0101000020E6100000645A9BC6F63A0FC0AAB184B531344440", "cartodb_id": 326, "name": "Puerta de Boadilla", "line": "ML3" }, "geometry": { "type": "Point", "coordinates": [ -3.903791, 40.407767 ] } }
]
}
